[
    {
        "episode": "Mount Fuji and Curry Noodles",
        "locations": [
            {
                "name": "Route 300-709 Intersection",
                "description": "Rin stops here and checks the time\n                                                                                    while showing us a great view of Mt.\n                                                                                    Fuji.",
                "image": "https://animenavi.org/assets/imgs/series/anime/yuru-camp/loc/s1/e1/1.jpg",
                "google_maps": "https://goo.gl/maps/9RB5bZP2J9iewVg69",
                "osm": "https://www.openstreetmap.org/?mlat=35.47404&mlon=138.57575#map=18/35.47404/138.57575",
                "coords": {
                    "lat": 35.47404,
                    "lng": 138.57575
                }
            },
            {
                "name": "Sleeping Nadeshiko and Waiting Shed",
                "description": "Rin first encounters Nadeshiko\n                                                                                    sleeping here, on a bench in the\n                                                                                    waiting shed.",
                "image": "https://animenavi.org/assets/imgs/series/anime/yuru-camp/loc/s1/e1/2.jpg",
                "google_maps": "https://goo.gl/maps/C7Em47J141QETJdi7",
                "osm": "https://www.openstreetmap.org/?mlat=35.47412&mlon=138.57407#map=18/35.47412/138.57407",
                "coords": {
                    "lat": 35.47412,
                    "lng": 138.57407
                }
            },
            {
                "name": "Lake Motosu Camp Check-in Building",
                "description": "This is where Rin checks in for the\n                                                                                    Lake Motosu Campsite. Series merch and promotion available\n                                                                                    here!",
                "image": "https://animenavi.org/assets/imgs/series/anime/yuru-camp/loc/s1/e1/3.jpg",
                "google_maps": "https://maps.google.com/?cid=7838609439215152171",
                "osm": "https://www.openstreetmap.org/?mlat=35.47354&mlon=138.57335#map=18/35.47354/138.57335&layers=N",
                "coords": {
                    "lat": 35.47354,
                    "lng": 138.57335
                }
            },
            {
                "name": "Path to Lake Motosu Campsite",
                "description": "Rin rides her bike down here to the\n                                                                                    lakeside. Nadeshiko also chases a\n                                                                                    scared Rin down the path later that\n                                                                                    night.",
                "image": "https://animenavi.org/assets/imgs/series/anime/yuru-camp/loc/s1/e1/4.jpg",
                "google_maps": "https://goo.gl/maps/6nJy3J8ATNkBMdA57",
                "osm": "https://www.openstreetmap.org/?mlat=35.47328&mlon=138.57316#map=18/35.47328/138.57316",
                "coords": {
                    "lat": 35.47328,
                    "lng": 138.57316
                }
            },
            {
                "name": "Lake Motosu Campground Washing Area",
                "description": "Rin cycles through this area as she\n                                                                                    heads to the lakeside.",
                "image": "https://animenavi.org/assets/imgs/series/anime/yuru-camp/loc/s1/e1/5.jpg",
                "google_maps": "https://goo.gl/maps/qMVw5498ydk7ywjH6",
                "osm": "https://www.openstreetmap.org/?mlat=35.47310&mlon=138.57435#map=18/35.47310/138.57435",
                "coords": {
                    "lat": 35.4731,
                    "lng": 138.57435
                }
            },
            {
                "name": "Rin Lake Motosu Tent Location",
                "description": "Rin pitches her tent here beside Lake\n                                                                                    Motosu.",
                "image": "https://animenavi.org/assets/imgs/series/anime/yuru-camp/loc/s1/e1/6.jpg",
                "google_maps": "https://goo.gl/maps/VhZ1BbagNUc231zC9",
                "osm": "https://www.openstreetmap.org/?mlat=35.47187&mlon=138.57487#map=18/35.47187/138.57487",
                "coords": {
                    "lat": 35.47187,
                    "lng": 138.57487
                }
            },
            {
                "name": "Rin Lake Motosu Firewood Location",
                "description": "Rin gathers pinecones and firewood in\n                                                                                    this forested area.",
                "image": "https://animenavi.org/assets/imgs/series/anime/yuru-camp/loc/s1/e1/7.jpg",
                "google_maps": "https://goo.gl/maps/7XywXCGhsNXjv8iX7",
                "osm": "https://www.openstreetmap.org/?mlat=35.47305&mlon=138.57502#map=18/35.47305/138.57502",
                "coords": {
                    "lat": 35.47305,
                    "lng": 138.57502
                }
            },
            {
                "name": "Utsubuna Station Line Bridge",
                "description": "Nadeshiko cycles through this bridge\n                                                                                    on the way to Utsubuna Station from\n                                                                                    her home.",
                "image": "https://animenavi.org/assets/imgs/series/anime/yuru-camp/loc/s1/e1/8.jpg",
                "google_maps": "https://goo.gl/maps/Bj3mfFMab3QtsdUq8",
                "osm": "https://www.openstreetmap.org/?mlat=35.28198&mlon=138.45893#map=18/35.28198/138.45893",
                "coords": {
                    "lat": 35.28198,
                    "lng": 138.45893
                }
            },
            {
                "name": "Old Building Shimobe ES & JHS\n                                                                                    (Motosu High School)",
                "description": "This is where the main protagonists\n                                                                                    go to school! Series merch and promotion available\n                                                                                    here!",
                "image": "https://animenavi.org/assets/imgs/series/anime/yuru-camp/loc/s1/e1/9.jpg",
                "google_maps": "https://goo.gl/maps/9RB5bZP2J9iewVg69",
                "osm": "https://www.openstreetmap.org/?mlat=35.47404&mlon=138.57575#map=18/35.47404/138.57575",
                "coords": {
                    "lat": 35.47404,
                    "lng": 138.57575
                }
            }
        ]
    },
    {
        "episode": "Welcome to the Outdoor Activities Club!",
        "locations": [
            {
                "name": "Fumotoppara Campground",
                "description": "Known as Fumoto Campgrounds in the\n                                                                                    anime, this is where Rin went solo\n                                                                                    camping during a cold, windy day.\n                                                                                    Nadeshiko catches up with her after\n                                                                                    learning from Ena that Rin was\n                                                                                    camping here. Series merch and promotion available\n                                                                                    here!",
                "image": "https://animenavi.org/assets/imgs/series/anime/yuru-camp/loc/s1/e2/1.jpg",
                "google_maps": "https://g.page/fumotoppara",
                "osm": "https://www.openstreetmap.org/?mlat=35.40112&mlon=138.56064#map=17/35.40112/138.56064",
                "coords": {
                    "lat": 35.40112,
                    "lng": 138.56064
                }
            },
            {
                "name": "Fumotoppara Campground Rin Tent\n                                                                                    Location",
                "description": "This is the spot where Rin set up\n                                                                                    camp at the Fumutoppara Campground.",
                "image": "https://animenavi.org/assets/imgs/series/anime/yuru-camp/loc/s1/e2/2.jpg",
                "google_maps": "https://goo.gl/maps/VQTBHvyJsD6PqFGz8",
                "osm": "https://www.openstreetmap.org/?mlat=35.39980&mlon=138.56241#map=17/35.39980/138.56241",
                "coords": {
                    "lat": 35.3998,
                    "lng": 138.56241
                }
            },
            {
                "name": "Fumotoppara Campground False Comfort\n                                                                                    Rooms Location",
                "description": "Rin thought that this was the comfort\n                                                                                    rooms of the campgrounds.",
                "image": "https://animenavi.org/assets/imgs/series/anime/yuru-camp/loc/s1/e2/3.jpg",
                "google_maps": "https://goo.gl/maps/eXjttn2PtA2hPMtA9",
                "osm": "https://www.openstreetmap.org/?mlat=35.40133&mlon=138.56210#map=17/35.40133/138.56210",
                "coords": {
                    "lat": 35.40133,
                    "lng": 138.5621
                }
            },
            {
                "name": "Fumotoppara Campground Real Comfort\n                                                                                    Rooms Location",
                "description": "This is where the real toilet is\n                                                                                    after Rin misttok the previous\n                                                                                    location for the comfort rooms.",
                "image": "https://animenavi.org/assets/imgs/series/anime/yuru-camp/loc/s1/e2/4.jpg",
                "google_maps": "https://goo.gl/maps/dPQe9quMYESQigqy6",
                "osm": "https://www.openstreetmap.org/?mlat=35.40055&mlon=138.56257#map=17/35.40055/138.56257",
                "coords": {
                    "lat": 35.40055,
                    "lng": 138.56257
                }
            },
            {
                "name": "Fumotoppara Campground Face-like\n                                                                                    Building",
                "description": "Rin takes a photo of this building\n                                                                                    while strolling at the campgrounds.",
                "image": "https://animenavi.org/assets/imgs/series/anime/yuru-camp/loc/s1/e2/5.jpg",
                "google_maps": "https://goo.gl/maps/ZBASngYZJ3Ap68Xt6",
                "osm": "https://www.openstreetmap.org/?mlat=35.40075&mlon=138.56234#map=17/35.40075/138.56234",
                "coords": {
                    "lat": 35.40075,
                    "lng": 138.56234
                }
            },
            {
                "name": "Upside-down Mt. Fuji",
                "description": "Rin took a photo of Mt. Fuji with\n                                                                                    it's upside-down reflection using\n                                                                                    the surface of the pond.",
                "image": "https://animenavi.org/assets/imgs/series/anime/yuru-camp/loc/s1/e2/6.jpg",
                "google_maps": "https://goo.gl/maps/9HwT54UVdmfU7vYZ6",
                "osm": "https://www.openstreetmap.org/?mlat=35.40059&mlon=138.56156#map=17/35.40059/138.56156",
                "coords": {
                    "lat": 35.40059,
                    "lng": 138.56156
                }
            }
        ]
    },
    {
        "episode": "Mount Fuji and Relaxed Hot Pot Camp",
        "locations": [
            {
                "name": "Selva Food Market",
                "description": "Known as Zebra Supermarket in the\n                                                                                    series, this supermarket is the\n                                                                                    basis of the supermarket where Aoi\n                                                                                    works part-time. Series merch and promotion available\n                                                                                    here!",
                "image": "https://animenavi.org/assets/imgs/series/anime/yuru-camp/loc/s1/e3/1.jpg",
                "google_maps": "https://goo.gl/maps/oWVfPcoWNtysXmDG9",
                "osm": "https://www.openstreetmap.org/?mlat=35.43270&mlon=138.44073#map=17/35.43270/138.44073",
                "coords": {
                    "lat": 35.4327,
                    "lng": 138.44073
                }
            },
            {
                "name": "Kawamoto Liquors",
                "description": "This building is the basis of the\n                                                                                    liquor shop where Chiaki works\n                                                                                    part-time. It was painted with the\n                                                                                    name of the building in the anime\n                                                                                    for promotion but it does not\n                                                                                    actually sell liquor.",
                "image": "https://animenavi.org/assets/imgs/series/anime/yuru-camp/loc/s1/e3/2.jpg",
                "google_maps": "https://goo.gl/maps/HJMT52MccfuyzRXB8",
                "osm": "https://www.openstreetmap.org/?mlat=35.43318&mlon=138.44147#map=17/35.43318/138.44147",
                "coords": {
                    "lat": 35.43318,
                    "lng": 138.44147
                }
            }
        ]
    },
    {
        "episode": "Mount Fuji and Relaxed Hot Pot Camp",
        "locations": [
            {
                "name": "Former Shimobecho Flood Control\n                                                                                    Warehouse",
                "description": "This is where Rin's home is located\n                                                                                    in the anime. It is a closed down\n                                                                                    flood control warehouse.",
                "image": "https://animenavi.org/assets/imgs/series/anime/yuru-camp/loc/s1/e4/0.jpg",
                "google_maps": "https://maps.app.goo.gl/CP7YJr6Cxdbbbvfe8",
                "osm": "https://www.openstreetmap.org/?mlat=35.4796&mlon=138.5273#map=17/35.4796/138.5273",
                "coords": {
                    "lat": 35.4796,
                    "lng": 138.5273
                }
            },
            {
                "name": "7451 Tokiwa",
                "description": "This is the model for Rin's house. It\n                                                                                    is a former restaurant.",
                "image": "https://animenavi.org/assets/imgs/series/anime/yuru-camp/loc/s1/e4/0.jpg",
                "google_maps": "https://maps.app.goo.gl/qg84aoU9iH2hQ7CU7",
                "osm": "https://www.openstreetmap.org/?mlat=35.44478&mlon=138.48271#map=17/35.44478/138.48271",
                "coords": {
                    "lat": 35.44478,
                    "lng": 138.48271
                }
            },
            {
                "name": "Yamanashishi Station",
                "description": "This is where Nadeshiko, Aoi, and\n                                                                                    Chiaki meet for the first camping\n                                                                                    trip of the Outdoor Activities Club.\n                                                                                    Nadeshiko was late.",
                "image": "https://animenavi.org/assets/imgs/series/anime/yuru-camp/loc/s1/e4/1.jpg",
                "google_maps": "https://goo.gl/maps/xN4rHbjmc6auEh8w7",
                "osm": "https://www.openstreetmap.org/?mlat=35.68498&mlon=138.68284#map=17/35.68498/138.68284",
                "coords": {
                    "lat": 35.68498,
                    "lng": 138.68284
                }
            },
            {
                "name": "Bridge to Fuefukigawa Fruit Park",
                "description": "Nadeshiko, Aoi, and Chiaki walked\n                                                                                    down this bridge on the way to\n                                                                                    Fuefukigawa Fruit Park. Chiaki tries\n                                                                                    to hitch a ride at the intersection\n                                                                                    East of the river as the long walk\n                                                                                    starts to tire her out.",
                "image": "https://animenavi.org/assets/imgs/series/anime/yuru-camp/loc/s1/e4/2.jpg",
                "google_maps": "https://goo.gl/maps/gjupecwThSgp5FDF9",
                "osm": "https://www.openstreetmap.org/?mlat=35.68618&mlon=138.67957#map=17/35.68618/138.67957",
                "coords": {
                    "lat": 35.68618,
                    "lng": 138.67957
                }
            },
            {
                "name": "Fuefukigawa Fruit Park",
                "description": "Known as Fuefuki Park in the series,\n                                                                                    this park is the destination of\n                                                                                    Nadeshiko, Aoi, and Chiaki who\n                                                                                    walked from Yamanashi City Station\n                                                                                    not knowing there is a bus that goes\n                                                                                    to the park from the station.",
                "image": "https://animenavi.org/assets/imgs/series/anime/yuru-camp/loc/s1/e4/3.jpg",
                "google_maps": "https://goo.gl/maps/b3NtHRUySZjbrseS6",
                "osm": "https://www.openstreetmap.org/?mlat=35.70133&mlon=138.66674#map=17/35.70133/138.66674",
                "coords": {
                    "lat": 35.70133,
                    "lng": 138.66674
                }
            },
            {
                "name": "Fruit Cafe Hachinka+",
                "description": "Known as Orchard Kitchen in the\n                                                                                    series, this is the cafe where\n                                                                                    Nadeshiko bought vanilla ice cream,\n                                                                                    Aoi bought a parfait, and Chiaki\n                                                                                    bought a violet sundae (possibly\n                                                                                    blueberry). Series merch and promotion available\n                                                                                    here!",
                "image": "https://animenavi.org/assets/imgs/series/anime/yuru-camp/loc/s1/e4/4.jpg",
                "google_maps": "https://goo.gl/maps/ygRyHbDBUCBKjYJ38",
                "osm": "https://www.openstreetmap.org/?mlat=35.70201&mlon=138.66566#map=17/35.70201/138.66566",
                "coords": {
                    "lat": 35.70201,
                    "lng": 138.66566
                }
            },
            {
                "name": "Korobokkuru Hutte",
                "description": "This is where Rin took a break in her\n                                                                                    journey and whaled on a Borscht Set\n                                                                                    with a Caramel Macchiato. Series merch and promotion available\n                                                                                    here!",
                "image": "https://animenavi.org/assets/imgs/series/anime/yuru-camp/loc/s1/e4/5.jpg",
                "google_maps": "https://goo.gl/maps/gAXXZKPhwDUBc5rE9",
                "osm": "https://www.openstreetmap.org/?mlat=36.10481&mlon=138.18800#map=17/36.10481/138.18800",
                "coords": {
                    "lat": 36.10481,
                    "lng": 138.188
                }
            },
            {
                "name": "Hottarakashi Onsen",
                "description": "This is the onsen where Nadeshiko,\n                                                                                    Aoi, and Chiaki visited. They\n                                                                                    overslept in the resting area after\n                                                                                    a bath so watch out since it can\n                                                                                    happen to you too!",
                "image": "https://animenavi.org/assets/imgs/series/anime/yuru-camp/loc/s1/e4/6.jpg",
                "google_maps": "https://goo.gl/maps/19YpH2d9m6YkHQUx7",
                "osm": "https://www.openstreetmap.org/?mlat=35.70610&mlon=138.65214#map=17/35.70610/138.65214",
                "coords": {
                    "lat": 35.7061,
                    "lng": 138.65214
                }
            },
            {
                "name": "Kirigamine Camera",
                "description": "This is where the actual live camera\n                                                                                    for the road on Mt. Kirigamine is\n                                                                                    located. Rin waved here to show\n                                                                                    Nadeshiko, Aoi, and Chiaki where she\n                                                                                    was.",
                "image": "https://animenavi.org/assets/imgs/series/anime/yuru-camp/loc/s1/e4/7.jpg",
                "google_maps": "https://goo.gl/maps/tabHjyLioxQNjAY86",
                "osm": "https://www.openstreetmap.org/?mlat=36.09686&mlon=138.16950#map=17/36.09686/138.16950",
                "coords": {
                    "lat": 36.09686,
                    "lng": 138.1695
                }
            }
        ]
    },
    {
        "episode": "Two Camps, Two Campers' Views",
        "locations": [
            {
                "name": "Road to the Abandoned Onsen",
                "description": "This is where Rin's unfortunate\n                                                                                    journey to the abandoned onsen\n                                                                                    starts.",
                "image": "https://animenavi.org/assets/imgs/series/anime/yuru-camp/loc/s1/e5/1.jpg",
                "google_maps": "https://goo.gl/maps/8HzZbPJ14Hibubev9",
                "osm": "https://www.openstreetmap.org/?mlat=36.13962&mlon=138.04019#map=17/36.13962/138.04019",
                "coords": {
                    "lat": 36.13962,
                    "lng": 138.04019
                }
            },
            {
                "name": "Onsen Sign",
                "description": "This is the sign that marks the\n                                                                                    entrance to the abandoned onsen.",
                "image": "https://animenavi.org/assets/imgs/series/anime/yuru-camp/loc/s1/e5/2.jpg",
                "google_maps": "https://goo.gl/maps/JgmC2SUrzg9yuWHPA",
                "osm": "https://www.openstreetmap.org/?mlat=36.14837&mlon=138.01498#map=17/36.14837/138.01498",
                "coords": {
                    "lat": 36.14837,
                    "lng": 138.01498
                }
            },
            {
                "name": "Unnamed Onsen",
                "description": "Known as the Takabotchi Mineral\n                                                                                    Spings in the series, this onsen is\n                                                                                    still standing, but the area has\n                                                                                    been blocked off from the access\n                                                                                    road.",
                "image": "https://animenavi.org/assets/imgs/series/anime/yuru-camp/loc/s1/e5/3.jpg",
                "google_maps": "https://goo.gl/maps/kucT9vN65p3sN14Q6",
                "osm": "https://www.openstreetmap.org/?mlat=36.14843&mlon=138.01641#map=17/36.14843/138.01641",
                "coords": {
                    "lat": 36.14843,
                    "lng": 138.01641
                }
            },
            {
                "name": "Japanese Alps Panoramic Lookout",
                "description": "This is Rin's first stop after coming\n                                                                                    back from the disappointing onsen\n                                                                                    journey. The weather wasn't great on\n                                                                                    this side of the mountain and cloud\n                                                                                    cover obstructed her view of the\n                                                                                    landscape.",
                "image": "https://animenavi.org/assets/imgs/series/anime/yuru-camp/loc/s1/e5/4.jpg",
                "google_maps": "https://goo.gl/maps/ygRyHbDBUCBKjYJ38",
                "osm": "https://www.openstreetmap.org/?mlat=35.70201&mlon=138.66566#map=17/35.70201/138.66566",
                "coords": {
                    "lat": 35.70201,
                    "lng": 138.66566
                }
            },
            {
                "name": "Trail to Mt. Takabotchi Peak",
                "description": "Moving on from the Panoramic Lookout,\n                                                                                    she heads towards the peak of Mt.\n                                                                                    Takabotchi.",
                "image": "https://animenavi.org/assets/imgs/series/anime/yuru-camp/loc/s1/e5/5.jpg",
                "google_maps": "https://goo.gl/maps/qzn4yghqQJuSdj6x5",
                "osm": "https://www.openstreetmap.org/?mlat=36.13461&mlon=138.03781#map=17/36.13461/138.03781",
                "coords": {
                    "lat": 36.13461,
                    "lng": 138.03781
                }
            },
            {
                "name": "Peak of Mt. Takabotchi",
                "description": "Rin arrives to the peak and notices\n                                                                                    that there were no clouds covering\n                                                                                    this side of the mountain, giving a\n                                                                                    clear view to the town below. Rin took a night photo of the town\n                                                                                    this spot overlooks and shared it\n                                                                                    with Nadeshiko. This location is a\n                                                                                    must for photographers!",
                "image": "https://animenavi.org/assets/imgs/series/anime/yuru-camp/loc/s1/e5/6.jpg",
                "google_maps": "https://goo.gl/maps/19YpH2d9m6YkHQUx7",
                "osm": "https://www.openstreetmap.org/?mlat=35.70610&mlon=138.65214#map=17/35.70610/138.65214",
                "coords": {
                    "lat": 35.7061,
                    "lng": 138.65214
                }
            },
            {
                "name": "Mt. Takabotchi Vending Machine",
                "description": "Rin wanders here while going around\n                                                                                    the place.",
                "image": "https://animenavi.org/assets/imgs/series/anime/yuru-camp/loc/s1/e5/7.jpg",
                "google_maps": "https://goo.gl/maps/9uKiwhG8yAkmEmqS9",
                "osm": "https://www.openstreetmap.org/?mlat=36.13487&mlon=138.03676#map=17/36.13487/138.03676",
                "coords": {
                    "lat": 36.13487,
                    "lng": 138.03676
                }
            },
            {
                "name": "Mt. Takabotchi Campground",
                "description": "Rin wanders here while going around\n                                                                                    the place.",
                "image": "https://animenavi.org/assets/imgs/series/anime/yuru-camp/loc/s1/e5/8.jpg",
                "google_maps": "https://goo.gl/maps/ETTmB1vcKXtmdWiUA",
                "osm": "https://www.openstreetmap.org/?mlat=36.13451&mlon=138.03702#map=17/36.13451/138.03702",
                "coords": {
                    "lat": 36.13451,
                    "lng": 138.03702
                }
            },
            {
                "name": "Mt. Takabotchi Antenna Station",
                "description": "Rin wanders here while going around\n                                                                                    the place.",
                "image": "https://animenavi.org/assets/imgs/series/anime/yuru-camp/loc/s1/e5/9.jpg",
                "google_maps": "https://goo.gl/maps/6cr5CM6njAb587C27",
                "osm": "https://www.openstreetmap.org/?mlat=36.13415&mlon=138.03545#map=17/36.13415/138.03545",
                "coords": {
                    "lat": 36.13415,
                    "lng": 138.03545
                }
            },
            {
                "name": "Mt. Takabotchi Pasture",
                "description": "Rin wanders here while going around\n                                                                                    the place.",
                "image": "https://animenavi.org/assets/imgs/series/anime/yuru-camp/loc/s1/e5/10.jpg",
                "google_maps": "https://goo.gl/maps/r4qpKLbREMbzFzXN7",
                "osm": "https://www.openstreetmap.org/?mlat=36.13197&mlon=138.03328#map=17/36.13197/138.03328",
                "coords": {
                    "lat": 36.13197,
                    "lng": 138.03328
                }
            },
            {
                "name": "Mt. Takabotchi Rin Tent Location",
                "description": "Rin wanders here while going around\n                                                                                    the place.",
                "image": "https://animenavi.org/assets/imgs/series/anime/yuru-camp/loc/s1/e5/11.jpg",
                "google_maps": "https://goo.gl/maps/T1NpNwhfUkFbXFrDA",
                "osm": "https://www.openstreetmap.org/?mlat=36.13157&mlon=138.03466#map=17/36.13157/138.03466",
                "coords": {
                    "lat": 36.13157,
                    "lng": 138.03466
                }
            },
            {
                "name": "Pine Wood Auto Camping Ground",
                "description": "This marker points at the exact place\n                                                                                    that Nadeshiko, Aoi, and Chiaki\n                                                                                    pitched their tent and ate their\n                                                                                    curry for dinner.",
                "image": "https://animenavi.org/assets/imgs/series/anime/yuru-camp/loc/s1/e5/12.jpg",
                "google_maps": "https://goo.gl/maps/LiZxJEx1tUSKHaxW7",
                "osm": "https://www.openstreetmap.org/?mlat=35.71152&mlon=138.66028#map=17/35.71152/138.66028",
                "coords": {
                    "lat": 35.71152,
                    "lng": 138.66028
                }
            },
            {
                "name": "Lovers' Sanctuary",
                "description": "This is where Nadeshiko took a photo\n                                                                                    of the town below and sent it to Rin\n                                                                                    during the night. Single otakus beware!",
                "image": "https://animenavi.org/assets/imgs/series/anime/yuru-camp/loc/s1/e5/13.jpg",
                "google_maps": "https://goo.gl/maps/T2NVjxwgKQhUtJ3q8",
                "osm": "https://www.openstreetmap.org/?mlat=35.70453&mlon=138.66287#map=17/35.70453/138.66287",
                "coords": {
                    "lat": 35.70453,
                    "lng": 138.66287
                }
            },
            {
                "name": "Takashima Castle",
                "description": "Rin passes through here after her\n                                                                                    solo camp on Mt. Takabotchi.",
                "image": "https://animenavi.org/assets/imgs/series/anime/yuru-camp/loc/s1/e5/14.jpg",
                "google_maps": "https://goo.gl/maps/aqwVFR8CYj6Ma8Fd9",
                "osm": "https://www.openstreetmap.org/?mlat=36.03977&mlon=138.11313#map=17/36.03977/138.11313",
                "coords": {
                    "lat": 36.03977,
                    "lng": 138.11313
                }
            },
            {
                "name": "Katakurakan Day Spa",
                "description": "This is the place where Shimarin took\n                                                                                    a bath after missing out on the\n                                                                                    onsen fun that Nadeshiko's group\n                                                                                    had.",
                "image": "https://animenavi.org/assets/imgs/series/anime/yuru-camp/loc/s1/e5/15.jpg",
                "google_maps": "https://goo.gl/maps/E9MHiATMc12yyECa9",
                "osm": "https://www.openstreetmap.org/?mlat=36.04810&mlon=138.11308#map=17/36.04810/138.11308",
                "coords": {
                    "lat": 36.0481,
                    "lng": 138.11308
                }
            }
        ]
    },
    {
        "episode": "Meat and Fall Colors and the Mystery Lake",
        "locations": [
            {
                "name": "Suimeiso Camping Ground",
                "description": "This is the place where Rin and\n                                                                                    Nadeshiko went camping by Lake\n                                                                                    Shibire. The campsites are opposite\n                                                                                    of this building and you can rent a\n                                                                                    boat to ride across the lake if you\n                                                                                    fancy it. There are no electric eels\n                                                                                    in the lake. Series merch and promotion available\n                                                                                    here!",
                "image": "https://animenavi.org/assets/imgs/series/anime/yuru-camp/loc/s1/e6/1.jpg",
                "google_maps": "https://goo.gl/maps/ARoUNTnWYZ5CgYV1A",
                "osm": "https://www.openstreetmap.org/?mlat=35.53055&mlon=138.51877#map=17/35.53055/138.51877",
                "coords": {
                    "lat": 35.53055,
                    "lng": 138.51877
                }
            }
        ]
    },
    {
        "episode": "A Night on the Lake Shore and Campers",
        "locations": [
            {
                "name": "Suimeiso Rin and Nadeshiko Tent\n                                                                                    Location",
                "description": "This is where Rin's unfortunate\n                                                                                    journey to the abandoned onsen\n                                                                                    starts.",
                "image": "https://animenavi.org/assets/imgs/series/anime/yuru-camp/loc/s1/e7/1.jpg",
                "google_maps": "https://goo.gl/maps/8HzZbPJ14Hibubev9",
                "osm": "https://www.openstreetmap.org/?mlat=36.13962&mlon=138.04019#map=17/36.13962/138.04019",
                "coords": {
                    "lat": 36.13962,
                    "lng": 138.04019
                }
            },
            {
                "name": "Suimeiso Toba Sisters Tent Location",
                "description": "This is where Rin and Nadeshiko first\n                                                                                    met Toba-sensei and her sister.",
                "image": "https://animenavi.org/assets/imgs/series/anime/yuru-camp/loc/s1/e7/2.jpg",
                "google_maps": "https://goo.gl/maps/ihniEfodiEywEC3cA",
                "osm": "https://www.openstreetmap.org/?mlat=35.52918&mlon=138.51529#map=17/35.52918/138.51529",
                "coords": {
                    "lat": 35.52918,
                    "lng": 138.51529
                }
            },
            {
                "name": "Nadeshiko-Mt. Fuji Lookout Point",
                "description": "This is where Nadeshiko was standing\n                                                                                    while looking at Mt. Fuji. It's only\n                                                                                    possible to see Mt. Fuji on a clear\n                                                                                    day.",
                "image": "https://animenavi.org/assets/imgs/series/anime/yuru-camp/loc/s1/e7/3.jpg",
                "google_maps": "https://goo.gl/maps/21zFwJx4KiLPknia8",
                "osm": "https://www.openstreetmap.org/?mlat=34.69583&mlon=137.60727#map=17/34.69583/137.60727",
                "coords": {
                    "lat": 34.69583,
                    "lng": 137.60727
                }
            },
            {
                "name": "Shimizu-Mt. Fuji View",
                "description": "This is the view that Nadeshiko\n                                                                                    missed while she was sleeping at the\n                                                                                    car. Missing this view of Mt. Fuji\n                                                                                    led her to cycle to Lake Motosu and\n                                                                                    meet Rin by chance.",
                "image": "https://animenavi.org/assets/imgs/series/anime/yuru-camp/loc/s1/e7/4.jpg",
                "google_maps": "https://goo.gl/maps/Z2HYRNqVM1j9vcrL8",
                "osm": "https://www.openstreetmap.org/?mlat=35.14486&mlon=138.52047#map=17/35.14486/138.52047",
                "coords": {
                    "lat": 35.14486,
                    "lng": 138.52047
                }
            }
        ]
    },
    {
        "episode": "Exams, Caribou, Steamed Buns, Yum!",
        "locations": [
            {
                "name": "Hadakajima Station",
                "description": "This is Aoi and Chiaki's stop when\n                                                                                    they go to work at the Zebra\n                                                                                    Supermarket and the Kawamoto Liquor\n                                                                                    shop.",
                "image": "https://animenavi.org/assets/imgs/series/anime/yuru-camp/loc/s1/e8/1.jpg",
                "google_maps": "https://goo.gl/maps/r51HK5jR3s1BAw1v6",
                "osm": "https://www.openstreetmap.org/?mlat=35.41856&mlon=138.45972#map=17/35.41856/138.45972",
                "coords": {
                    "lat": 35.41856,
                    "lng": 138.45972
                }
            },
            {
                "name": "Minobu Station",
                "description": "This is Nadeshiko, Aoi, and Chiaki\n                                                                                    leave the train as they head towards\n                                                                                    the Caribou Outdoor Shop.",
                "image": "https://animenavi.org/assets/imgs/series/anime/yuru-camp/loc/s1/e8/2.jpg",
                "google_maps": "https://goo.gl/maps/bsTkXKHCKHC6iXHT7",
                "osm": "https://www.openstreetmap.org/?mlat=35.36143&mlon=138.45302#map=17/35.36143/138.45302",
                "coords": {
                    "lat": 35.36143,
                    "lng": 138.45302
                }
            },
            {
                "name": "Yutakaya Store",
                "description": "This is a store that Nadeshiko passed\n                                                                                    by when they arrived at Minobu. They\n                                                                                    even have a Houtou menu here which\n                                                                                    was the food Nadeshiko saw on a\n                                                                                    banner outside the store. Series merch and promotion available\n                                                                                    here!",
                "image": "https://animenavi.org/assets/imgs/series/anime/yuru-camp/loc/s1/e8/3.jpg",
                "google_maps": "https://goo.gl/maps/zDbKET7Z2NJMCudN6",
                "osm": "https://www.openstreetmap.org/?mlat=35.36109&mlon=138.45215#map=17/35.36109/138.45215",
                "coords": {
                    "lat": 35.36109,
                    "lng": 138.45215
                }
            },
            {
                "name": "Eishodo",
                "description": "This is the place where Nadeshiko,\n                                                                                    Aoi, and Chiaki bought Minobu\n                                                                                    Manjuus. All three of them went back\n                                                                                    for seconds so make sure to buy\n                                                                                    enough! Series merch and promotion available\n                                                                                    here!",
                "image": "https://animenavi.org/assets/imgs/series/anime/yuru-camp/loc/s1/e8/4.jpg",
                "google_maps": "https://goo.gl/maps/bqWWshx91Ht8cZL39",
                "osm": "https://www.openstreetmap.org/?mlat=35.36158&mlon=138.45229#map=17/35.36158/138.45229",
                "coords": {
                    "lat": 35.36158,
                    "lng": 138.45229
                }
            },
            {
                "name": "Minobu Bun Bench",
                "description": "This is where Nadeshiko, Aoi, and\n                                                                                    Chiaki sat down and ate the Minobu\n                                                                                    Manjuus they bought.",
                "image": "https://animenavi.org/assets/imgs/series/anime/yuru-camp/loc/s1/e8/5.jpg",
                "google_maps": "https://goo.gl/maps/454UYzYN2wgBFUVq5",
                "osm": "https://www.openstreetmap.org/?mlat=35.36180&mlon=138.45234#map=17/35.36180/138.45234",
                "coords": {
                    "lat": 35.3618,
                    "lng": 138.45234
                }
            }
        ]
    },
    {
        "episode": "A Night of Navigator Nadeshiko and Hot\n                                                            Spring Steam",
        "locations": [
            {
                "name": "Lawson Minami Alps Kaido Shop",
                "description": "This is where Rin stops to answer\n                                                                                    Nadeshiko's call.",
                "image": "https://animenavi.org/assets/imgs/series/anime/yuru-camp/loc/s1/e9/1.jpg",
                "google_maps": "https://goo.gl/maps/rro8rGJ3xR1oxuAJ6",
                "osm": "https://www.openstreetmap.org/?mlat=35.66108&mlon=138.44026#map=17/35.66108/138.44026",
                "coords": {
                    "lat": 35.66108,
                    "lng": 138.44026
                }
            },
            {
                "name": "First Yashajin Pass Bridge",
                "description": "This bridge is the model of tha\n                                                                                    bridge that Rin crosses at the base\n                                                                                    of Minami Alps.",
                "image": "https://animenavi.org/assets/imgs/series/anime/yuru-camp/loc/s1/e9/2.jpg",
                "google_maps": "https://goo.gl/maps/M2MNFCEKA5rErtXL6",
                "osm": "https://www.openstreetmap.org/?mlat=35.63801&mlon=138.38493#map=17/35.63801/138.38493",
                "coords": {
                    "lat": 35.63801,
                    "lng": 138.38493
                }
            },
            {
                "name": "First Yashajin Pass Bridge Sign",
                "description": "Rin looks at this sign and was\n                                                                                    astounded by the name of the pass\n                                                                                    she was headed to.",
                "image": "https://animenavi.org/assets/imgs/series/anime/yuru-camp/loc/s1/e9/3.jpg",
                "google_maps": "https://goo.gl/maps/vyKKLQFKF3PbTBkE8",
                "osm": "https://www.openstreetmap.org/?mlat=35.63790&mlon=138.38453#map=17/35.63790/138.38453",
                "coords": {
                    "lat": 35.6379,
                    "lng": 138.38453
                }
            },
            {
                "name": "Second Yashajin Pass Bridge",
                "description": "This Red Arch bridge is the second\n                                                                                    bridge seen as Rin makes her way\n                                                                                    through Yashajin Pass.",
                "image": "https://animenavi.org/assets/imgs/series/anime/yuru-camp/loc/s1/e9/4.jpg",
                "google_maps": "https://goo.gl/maps/zHxJdRWjdEPFcuqq5",
                "osm": "https://www.openstreetmap.org/?mlat=35.63574&mlon=138.37131#map=17/35.63574/138.37131",
                "coords": {
                    "lat": 35.63574,
                    "lng": 138.37131
                }
            },
            {
                "name": "Ashiyasu Onsen Iwazonokan",
                "description": "Rin passes through these onsen\n                                                                                    buildings as she drives through\n                                                                                    Yashajin Pass. The capture point is on the road\n                                                                                    across the river!",
                "image": "https://animenavi.org/assets/imgs/series/anime/yuru-camp/loc/s1/e9/5.jpg",
                "google_maps": "https://goo.gl/maps/uqQuN5R7b6Vr3kAA9",
                "osm": "https://www.openstreetmap.org/?mlat=35.63539&mlon=138.37017#map=17/35.63539/138.37017",
                "coords": {
                    "lat": 35.63539,
                    "lng": 138.37017
                }
            },
            {
                "name": "Yashajin Pass Parking Lot",
                "description": "This is where Rin found out that the\n                                                                                    road up ahead cannot be used by\n                                                                                    private vehicles. There may be wild animals such as\n                                                                                    bears in the area! Please be\n                                                                                    cautious of your surroundings!",
                "image": "https://animenavi.org/assets/imgs/series/anime/yuru-camp/loc/s1/e9/6.jpg",
                "google_maps": "https://goo.gl/maps/7f1TZZK4NDa2tLj78",
                "osm": "https://www.openstreetmap.org/?mlat=35.63540&mlon=138.34582#map=17/35.63540/138.34582",
                "coords": {
                    "lat": 35.6354,
                    "lng": 138.34582
                }
            },
            {
                "name": "Yashagami Hutte",
                "description": "This is where Rin got a drink from a\n                                                                                    vending machine as she takes a break\n                                                                                    after finding out about the\n                                                                                    restricted road. There may be wild animals such as\n                                                                                    bears in the area! Please be\n                                                                                    cautious of your surroundings! Series merch and promotion available\n                                                                                    here!",
                "image": "https://animenavi.org/assets/imgs/series/anime/yuru-camp/loc/s1/e9/7.jpg",
                "google_maps": "https://goo.gl/maps/qgepuRUhFTfYaEC59",
                "osm": "https://www.openstreetmap.org/?mlat=35.63536&mlon=138.34512#map=17/35.63536/138.34512",
                "coords": {
                    "lat": 35.63536,
                    "lng": 138.34512
                }
            },
            {
                "name": "Minami Alps Mt. Houou Hikers Hut",
                "description": "This is where Rin rests and meets\n                                                                                    Subaru-san the Tea Lady who was\n                                                                                    waiting for her companion that ran\n                                                                                    late. There may be wild animals such as\n                                                                                    bears in the area! Please be\n                                                                                    cautious of your surroundings!",
                "image": "https://animenavi.org/assets/imgs/series/anime/yuru-camp/loc/s1/e9/8.jpg",
                "google_maps": "https://goo.gl/maps/oVESvcnigLHpNp2i7",
                "osm": "https://www.openstreetmap.org/?mlat=35.63559&mlon=138.34552#map=17/35.63559/138.34552",
                "coords": {
                    "lat": 35.63559,
                    "lng": 138.34552
                }
            },
            {
                "name": "Minami Alps Mt. Houou Mountain Trail",
                "description": "This is where Rin sees Subaru-san off\n                                                                                    and was given tea. There may be wild animals such as\n                                                                                    bears in the area! Please be\n                                                                                    cautious of your surroundings!",
                "image": "https://animenavi.org/assets/imgs/series/anime/yuru-camp/loc/s1/e9/9.jpg",
                "google_maps": "https://goo.gl/maps/zmUDsX8RVdiA5NKNA",
                "osm": "https://www.openstreetmap.org/?mlat=35.63563&mlon=138.34562#map=17/35.63563/138.34562",
                "coords": {
                    "lat": 35.63563,
                    "lng": 138.34562
                }
            },
            {
                "name": "Tsuetsuki Pass Observation Cafe Kaze\n                                                                                    no Uta",
                "description": "This is where Rin was when Nadeshiko\n                                                                                    asked for her location. It's\n                                                                                    directly south of Lake Suwa and\n                                                                                    there is an observation deck nearby. They are only open from April to the\n                                                                                    end of November. Opening hours:\n                                                                                    10:00 - 15:00 (Closed on\n                                                                                    Wednesdays).",
                "image": "https://animenavi.org/assets/imgs/series/anime/yuru-camp/loc/s1/e9/10.jpg",
                "google_maps": "https://goo.gl/maps/r4qpKLbREMbzFzXN7",
                "osm": "https://www.openstreetmap.org/?mlat=36.13197&mlon=138.03328#map=17/36.13197/138.03328",
                "coords": {
                    "lat": 36.13197,
                    "lng": 138.03328
                }
            },
            {
                "name": "Senjoujiki Curl",
                "description": "This mountainous area was one of the\n                                                                                    places that Nadeshiko suggested\n                                                                                    though Rin didn't actually come to\n                                                                                    this place. The northeast direction\n                                                                                    fromt this spot has the same area of\n                                                                                    the curl used in the anime.",
                "image": "https://animenavi.org/assets/imgs/series/anime/yuru-camp/loc/s1/e9/11.jpg",
                "google_maps": "https://goo.gl/maps/sxNMVeqVRndM31FV7",
                "osm": "https://www.openstreetmap.org/?mlat=35.77811&mlon=137.81463#map=17/35.77811/137.81463",
                "coords": {
                    "lat": 35.77811,
                    "lng": 137.81463
                }
            },
            {
                "name": "Mushroom Kingdom",
                "description": "This place was one of the places that\n                                                                                    Nadeshiko suggested though Rin\n                                                                                    didn't actually come to this place.\n                                                                                    It is a ski resort in the winter and\n                                                                                    a mushroom kingdom on warmer\n                                                                                    seasons. They are open from April 25 - May 31,\n                                                                                    10:00 - 16:00 with last admission at\n                                                                                    15:30. They are closed on Thursdays.\n                                                                                    (Subject to change if Thursday is a\n                                                                                    national holiday.)",
                "image": "https://animenavi.org/assets/imgs/series/anime/yuru-camp/loc/s1/e9/12.jpg",
                "google_maps": "https://goo.gl/maps/GHcaxgMwjSY2cQAz8",
                "osm": "https://www.openstreetmap.org/?mlat=35.81544&mlon=137.91633#map=17/35.81544/137.91633",
                "coords": {
                    "lat": 35.81544,
                    "lng": 137.91633
                }
            },
            {
                "name": "Hoshakuzan Kozenji Temple",
                "description": "This is the temple where Rin stops\n                                                                                    by. It is famous for it's legendary\n                                                                                    dog, which is the reason why Rin\n                                                                                    visited the place. Series merch and promotion available\n                                                                                    here!",
                "image": "https://animenavi.org/assets/imgs/series/anime/yuru-camp/loc/s1/e9/13.jpg",
                "google_maps": "https://goo.gl/maps/15sykNzF3atxF4bm7",
                "osm": "https://www.openstreetmap.org/?mlat=35.73487&mlon=137.89551#map=17/35.73487/137.89551",
                "coords": {
                    "lat": 35.73487,
                    "lng": 137.89551
                }
            },
            {
                "name": "Hayatarou Grave",
                "description": "This is where Rin pays her respects\n                                                                                    for the hero dog that the temple\n                                                                                    enshrines.",
                "image": "https://animenavi.org/assets/imgs/series/anime/yuru-camp/loc/s1/e9/14.jpg",
                "google_maps": "https://goo.gl/maps/qChj2EZ8zqruG7NXA",
                "osm": "https://www.openstreetmap.org/?mlat=35.73466&mlon=137.89579#map=17/35.73466/137.89579",
                "coords": {
                    "lat": 35.73466,
                    "lng": 137.89579
                }
            },
            {
                "name": "Kozenji Temple Building",
                "description": "In the series, this part of the\n                                                                                    temple is where Rin bought one of\n                                                                                    the cute dog fortunes and got one\n                                                                                    that says small luck.",
                "image": "https://animenavi.org/assets/imgs/series/anime/yuru-camp/loc/s1/e9/15.jpg",
                "google_maps": "https://goo.gl/maps/igYzy7MwQFuhCbN7A",
                "osm": "https://www.openstreetmap.org/?mlat=35.73511&mlon=137.89611#map=17/35.73511/137.89611",
                "coords": {
                    "lat": 35.73511,
                    "lng": 137.89611
                }
            },
            {
                "name": "Hayataro Onsen Komakusa-no-yu Hot\n                                                                                    Spring",
                "description": "This is where Rin rests and grabs a\n                                                                                    bottle of tea after visiting the\n                                                                                    Kozenji Temple. She oversleeps out\n                                                                                    of exhaustion from her trip.",
                "image": "https://animenavi.org/assets/imgs/series/anime/yuru-camp/loc/s1/e9/16.jpg",
                "google_maps": "https://goo.gl/maps/3o3divGmuDt6ZpUq6",
                "osm": "https://www.openstreetmap.org/?mlat=35.74395&mlon=137.88815#map=17/35.74395/137.88815",
                "coords": {
                    "lat": 35.74395,
                    "lng": 137.88815
                }
            }
        ]
    },
    {
        "episode": "Clumsy Travelers and Camp Meetings",
        "locations": [
            {
                "name": "FamilyMart Uwabukita",
                "description": "Rin bought a juicy pork bun from here\n                                                                                    as she headed to the campgrounds.",
                "image": "https://animenavi.org/assets/imgs/series/anime/yuru-camp/loc/s1/e10/1.jpg",
                "google_maps": "https://goo.gl/maps/UHW8HTUfhDwsXsq27",
                "osm": "https://www.openstreetmap.org/?mlat=35.74174&mlon=137.93498#map=17/35.74174/137.93498",
                "coords": {
                    "lat": 35.74174,
                    "lng": 137.93498
                }
            },
            {
                "name": "Mount Jinbagata Road Stop Sign",
                "description": "Rin sees a stop sign at the side of\n                                                                                    the road and stops. She is later\n                                                                                    told by Chiaki that the sign was\n                                                                                    just left there and that the road is\n                                                                                    apssable. She then gets off her\n                                                                                    moped and walks to the campground.",
                "image": "https://animenavi.org/assets/imgs/series/anime/yuru-camp/loc/s1/e10/2.jpg",
                "google_maps": "https://goo.gl/maps/2A3q2Z18FsouCSYBA",
                "osm": "https://www.openstreetmap.org/?mlat=35.67105&mlon=137.98513#map=17/35.67105/137.98513",
                "coords": {
                    "lat": 35.67105,
                    "lng": 137.98513
                }
            },
            {
                "name": "Mount Jinbagata Campground",
                "description": "This is the campground where Rin\n                                                                                    arrives late after oversleeping at\n                                                                                    the Hayataro Onsen.",
                "image": "https://animenavi.org/assets/imgs/series/anime/yuru-camp/loc/s1/e10/3.jpg",
                "google_maps": "https://goo.gl/maps/YXyyyeRQ6YQiCjxd8",
                "osm": "https://www.openstreetmap.org/?mlat=35.67270&mlon=137.98312#map=17/35.67270/137.98312",
                "coords": {
                    "lat": 35.6727,
                    "lng": 137.98312
                }
            },
            {
                "name": "Mount Jinbagata Rin Tent Location",
                "description": "This is where Rin pitched her tent in\n                                                                                    the Jinbagatayama Campground.",
                "image": "https://animenavi.org/assets/imgs/series/anime/yuru-camp/loc/s1/e10/4.jpg",
                "google_maps": "https://goo.gl/maps/DAF6idVHA9rp25QH9",
                "osm": "https://www.openstreetmap.org/?mlat=35.67292&mlon=137.98309#map=17/35.67292/137.98309",
                "coords": {
                    "lat": 35.67292,
                    "lng": 137.98309
                }
            },
            {
                "name": "Mount Jinbagata Summit Observatory",
                "description": "This is where Rin sat down on her low\n                                                                                    chair and cooked her juicy pork bun\n                                                                                    that she bought from the convenience\n                                                                                    store.",
                "image": "https://animenavi.org/assets/imgs/series/anime/yuru-camp/loc/s1/e10/5.jpg",
                "google_maps": "https://goo.gl/maps/WhE3us87rXsoPFWz7",
                "osm": "https://www.openstreetmap.org/?mlat=35.67407&mlon=137.98346#map=17/35.67407/137.98346",
                "coords": {
                    "lat": 35.67407,
                    "lng": 137.98346
                }
            }
        ]
    },
    {
        "episode": "Christmas Camp!",
        "locations": [
            {
                "name": "Mount Fuji YMCA Global Eco Village",
                "description": "This is where Rin, Nadeshiko, Aoi,\n                                                                                    Ena, and Toba-sensei had their\n                                                                                    christmas camp!",
                "image": "https://animenavi.org/assets/imgs/series/anime/yuru-camp/loc/s1/e11/1.jpg",
                "google_maps": "https://goo.gl/maps/Mgo5UBfM9PDgC9jg6",
                "osm": "https://www.openstreetmap.org/?mlat=35.34142&mlon=138.58348#map=17/35.34142/138.58348",
                "coords": {
                    "lat": 35.34142,
                    "lng": 138.58348
                }
            },
            {
                "name": "Mt. Fuji YMCA Tent Location",
                "description": "This is where the campers pitched\n                                                                                    their tent in the campgrounds.",
                "image": "https://animenavi.org/assets/imgs/series/anime/yuru-camp/loc/s1/e11/2.jpg",
                "google_maps": "https://goo.gl/maps/iZE5EB1FzfrnUD3o8",
                "osm": "https://www.openstreetmap.org/?mlat=35.34076&mlon=138.58486#map=17/35.34076/138.58486",
                "coords": {
                    "lat": 35.34076,
                    "lng": 138.58486
                }
            },
            {
                "name": "Natura Vita",
                "description": "This is the cafe of the Makaino\n                                                                                    Farm.\n                                                                                    This is the place where\n                                                                                    Aoi\n                                                                                        and Chiaki ate dessert\n                                                                                    \n                                                                                    while Rin, Nadeshiko, and\n                                                                                    Toba-sensei were at the campgrounds. Series merch and promotion available\n                                                                                    here!",
                "image": "https://animenavi.org/assets/imgs/series/anime/yuru-camp/loc/s1/e11/3.jpg",
                "google_maps": "https://goo.gl/maps/Vd9BYw6HLmVGLfzJ7",
                "osm": "https://www.openstreetmap.org/?mlat=35.33567&mlon=138.58389#map=17/35.33567/138.58389",
                "coords": {
                    "lat": 35.33567,
                    "lng": 138.58389
                }
            }
        ]
    },
    {
        "episode": "So Many Mt. Fujis",
        "locations": [
            {
                "name": "Fujisan World Heritage Center",
                "description": "This is where the first stamp of the\n                                                                                    Yamanashi Lake Stamp Rally is\n                                                                                    located. It is a center built around\n                                                                                    Mt. Fuji and it's geography.\n                                                                                    Nadeshiko\n                                                                                        bought a blue Mt. Fuji Curry\n                                                                                    ,\n                                                                                    Aoi\n                                                                                        bought a dessert of sorts\n                                                                                    , meanwhile\n                                                                                    Chiaki\n                                                                                        bought Lava Fried Chicken\n                                                                                    . Series merch and promotion available\n                                                                                    here!",
                "image": "https://animenavi.org/assets/imgs/series/anime/yuru-camp/loc/sp1/e2/1.jpg",
                "google_maps": "https://goo.gl/maps/eWcz4vR8jkPMnVC79",
                "osm": "https://www.openstreetmap.org/?mlat=35.48581&mlon=138.77081#map=17/35.48581/138.77081",
                "coords": {
                    "lat": 35.48581,
                    "lng": 138.77081
                }
            },
            {
                "name": "Fujisan World Heritage Center Mt.\n                                                                                    Fuji Capture Point",
                "description": "This is where Nadeshiko, Aoi, and\n                                                                                    Chiaki wanted to view Mt. Fuji but\n                                                                                    due to unfavorable weather, it was\n                                                                                    hidden behind a fog. The view is amazing if you can get\n                                                                                    the timing with the weather right.",
                "image": "https://animenavi.org/assets/imgs/series/anime/yuru-camp/loc/sp1/e2/2.jpg",
                "google_maps": "https://goo.gl/maps/XCU1s1Q8eMbRswEx7",
                "osm": "https://www.openstreetmap.org/?mlat=35.48583&mlon=138.77051#map=17/35.48583/138.77051",
                "coords": {
                    "lat": 35.48583,
                    "lng": 138.77051
                }
            }
        ]
    },
    {
        "episode": "Mad Dash! Kawaguchi Lake Rally",
        "locations": [
            {
                "name": "Kawaguchiko Bridge",
                "description": "This is where Aoi, and Chiaki rode\n                                                                                    their bikes rather slowly as fatigue\n                                                                                    was getting to them. Nadeshiko\n                                                                                    offered to ride ahead and go back to\n                                                                                    the bridge but changed her mind\n                                                                                    after they were inspired by bikers\n                                                                                    who sped past through them.",
                "image": "https://animenavi.org/assets/imgs/series/anime/yuru-camp/loc/sp1/e3/1.jpg",
                "google_maps": "https://goo.gl/maps/82hoLLSPKcP3vetJA",
                "osm": "https://www.openstreetmap.org/?mlat=35.51153&mlon=138.76438#map=17/35.51153/138.76438",
                "coords": {
                    "lat": 35.51153,
                    "lng": 138.76438
                }
            },
            {
                "name": "Oishi Park Parking Lot",
                "description": "This is where Nadeshiko, Aoi, and\n                                                                                    Chiaki parked their bikes after\n                                                                                    crossing the Kawaguchiko Bridge.",
                "image": "https://animenavi.org/assets/imgs/series/anime/yuru-camp/loc/sp1/e3/2.jpg",
                "google_maps": "https://goo.gl/maps/gr2KJz7F6p5YJ2Ah9",
                "osm": "https://www.openstreetmap.org/?mlat=35.52332&mlon=138.74567#map=17/35.52332/138.74567",
                "coords": {
                    "lat": 35.52332,
                    "lng": 138.74567
                }
            },
            {
                "name": "Small Mt. Fuji Made of Rock",
                "description": "This is a miniature Mt. Fuji where\n                                                                                    the bikers from earlier who passed\n                                                                                    them at the Kawaguchiko Bridge asks\n                                                                                    Aoi to take a photo of them posing\n                                                                                    with the monument.",
                "image": "https://animenavi.org/assets/imgs/series/anime/yuru-camp/loc/sp1/e3/3.jpg",
                "google_maps": "https://goo.gl/maps/yoU2z5jJyap1Khpu9",
                "osm": "https://www.openstreetmap.org/?mlat=35.52295&mlon=138.74582#map=17/35.52295/138.74582",
                "coords": {
                    "lat": 35.52295,
                    "lng": 138.74582
                }
            },
            {
                "name": "Kawaguchiko Natural Living Center\n                                                                                    Chairs and Table Capture Point",
                "description": "This is where Nadeshiko, Inuko. and\n                                                                                    Chiaki were given oranges in\n                                                                                    exchange for taking photos of the\n                                                                                    biker couple. The couple also showed\n                                                                                    them their photo album and told them\n                                                                                    about their history of biking to\n                                                                                    places together.",
                "image": "https://animenavi.org/assets/imgs/series/anime/yuru-camp/loc/sp1/e3/4.jpg",
                "google_maps": "https://goo.gl/maps/UTtdPYWskNBPTfSf6",
                "osm": "https://www.openstreetmap.org/?mlat=35.52263&mlon=138.74558#map=17/35.52263/138.74558",
                "coords": {
                    "lat": 35.52263,
                    "lng": 138.74558
                }
            },
            {
                "name": "Kawaguchiko Natural Living Center\n                                                                                    Greenhouse Capture Point",
                "description": "Face the greenhouse while including a\n                                                                                    bit of the pathway in the frame and\n                                                                                    take a photo!",
                "image": "https://animenavi.org/assets/imgs/series/anime/yuru-camp/loc/sp1/e3/5.jpg",
                "google_maps": "https://goo.gl/maps/UTtdPYWskNBPTfSf6",
                "osm": "https://www.openstreetmap.org/?mlat=35.52260&mlon=138.74545#map=17/35.52260/138.74545",
                "coords": {
                    "lat": 35.5226,
                    "lng": 138.74545
                }
            },
            {
                "name": "Kawaguchiko Natural Living Center",
                "description": "This is where Nadeshiko, Aoi, and\n                                                                                    Chiaki parked their bikes after\n                                                                                    crossing the Kawaguchiko Bridge.",
                "image": "https://animenavi.org/assets/imgs/series/anime/yuru-camp/loc/sp1/e3/6.jpg",
                "google_maps": "https://goo.gl/maps/AXaCAdH8z6L9LDJTA",
                "osm": "https://www.openstreetmap.org/?mlat=35.52285&mlon=138.74549#map=17/35.52285/138.74549",
                "coords": {
                    "lat": 35.52285,
                    "lng": 138.74549
                }
            }
        ]
    },
    {
        "episode": "True Facts: Kachikachi Mountain",
        "locations": [
            {
                "name": "Mt. Fuji Panoramic Ropeway",
                "description": "This is where Nadeshiko, Aoi, and\n                                                                                    Chiaki rode a cable car to reach\n                                                                                    Kawaguchiko Tenjoyama Park.",
                "image": "https://animenavi.org/assets/imgs/series/anime/yuru-camp/loc/sp1/e5/1.jpg",
                "google_maps": "https://goo.gl/maps/RtEuVCMN6RyHhixC8",
                "osm": "https://www.openstreetmap.org/?mlat=35.50403&mlon=138.77208#map=17/35.50403/138.77208",
                "coords": {
                    "lat": 35.50403,
                    "lng": 138.77208
                }
            },
            {
                "name": "Kawaguchiko Tenjoyama Park",
                "description": "This is where the third stamp of the\n                                                                                    Yamanashi Lake Stamp Rally is\n                                                                                    located. In the series, it was\n                                                                                    located in a caf called\n                                                                                    Tanuki-Kissa.",
                "image": "https://animenavi.org/assets/imgs/series/anime/yuru-camp/loc/sp1/e5/2.jpg",
                "google_maps": "https://goo.gl/maps/5kdW7aTA3TNEeWaq7",
                "osm": "https://www.openstreetmap.org/?mlat=35.50358&mlon=138.77699#map=17/35.50358/138.77699",
                "coords": {
                    "lat": 35.50358,
                    "lng": 138.77699
                }
            },
            {
                "name": "Kawaguchiko Tenjozan Park Mt. Fuji\n                                                                                    Capture Point",
                "description": "The capture point id located at the\n                                                                                    roof top of the building. Face Mt.\n                                                                                    Fuji and take a photo.",
                "image": "https://animenavi.org/assets/imgs/series/anime/yuru-camp/loc/sp1/e5/3.jpg",
                "google_maps": "https://goo.gl/maps/3oqz2XaFLeCAZq7PA",
                "osm": "https://www.openstreetmap.org/?mlat=35.50359&mlon=138.77707#map=17/35.50359/138.77707",
                "coords": {
                    "lat": 35.50359,
                    "lng": 138.77707
                }
            },
            {
                "name": "Kawaguchiko Tenjozan Park Tanuki and\n                                                                                    Rabbit Statues",
                "description": "This is where Nadeshiko, Inuko, and\n                                                                                    Chiaki took photos of the statues.\n                                                                                    These characters came from a story\n                                                                                    that was told in the first half of\n                                                                                    the episode.",
                "image": "https://animenavi.org/assets/imgs/series/anime/yuru-camp/loc/sp1/e5/4.jpg",
                "google_maps": "https://goo.gl/maps/Lp6wLpknxEprSSar9",
                "osm": "https://www.openstreetmap.org/?mlat=35.50348&mlon=138.77707#map=17/35.50348/138.77707",
                "coords": {
                    "lat": 35.50348,
                    "lng": 138.77707
                }
            }
        ]
    },
    {
        "episode": "Both of Us, Back in the Day",
        "locations": [
            {
                "name": "Weeping Cherry Blossoms of Hounkaku",
                "description": "This is where the fourth stamp of the\n                                                                                    Yamanashi Lake Stamp Rally is\n                                                                                    located.",
                "image": "https://animenavi.org/assets/imgs/series/anime/yuru-camp/loc/sp1/e6/1.jpg",
                "google_maps": "https://goo.gl/maps/PczS1yjqhc2TMEcPA",
                "osm": "https://www.openstreetmap.org/?mlat=35.38165&mlon=138.42537#map=17/35.38165/138.42537",
                "coords": {
                    "lat": 35.38165,
                    "lng": 138.42537
                }
            },
            {
                "name": "Nambu Fire Festival Grounds",
                "description": "This is where the fifth stamp of the\n                                                                                    Yamanashi Lake Stamp Rally is\n                                                                                    located. Inuko and Chiaki first met\n                                                                                    here and became friends. This is\n                                                                                    also where the Nambu Fire Festival\n                                                                                    happens too.",
                "image": "https://animenavi.org/assets/imgs/series/anime/yuru-camp/loc/sp1/e6/2.jpg",
                "google_maps": "https://goo.gl/maps/LyBTLS1wea5AdPus5",
                "osm": "https://www.openstreetmap.org/?mlat=35.28390&mlon=138.45776#map=17/35.28390/138.45776",
                "coords": {
                    "lat": 35.2839,
                    "lng": 138.45776
                }
            },
            {
                "name": "Nambu Drink Machine Station",
                "description": "This is where Nadeshiko, Inuko, and\n                                                                                    Chiaki got some drinks after\n                                                                                    checking out the bridge and the Fire\n                                                                                    Festival grounds.",
                "image": "https://animenavi.org/assets/imgs/series/anime/yuru-camp/loc/sp1/e6/3.jpg",
                "google_maps": "https://goo.gl/maps/6hAaGDfQfu6QrfJDA",
                "osm": "https://www.openstreetmap.org/?mlat=35.28229&mlon=138.45658#map=17/35.28229/138.45658",
                "coords": {
                    "lat": 35.28229,
                    "lng": 138.45658
                }
            }
        ]
    },
    {
        "episode": "Lies Spread 'Round the World",
        "locations": [
            {
                "name": "Shimobe Bridge",
                "description": "This is where the fifth stamp of the\n                                                                                    Yamanashi Lake Stamp Rally is\n                                                                                    located.",
                "image": "https://animenavi.org/assets/imgs/series/anime/yuru-camp/loc/sp1/e8/1.jpg",
                "google_maps": "https://goo.gl/maps/9bkG1Hs7fjVuybbj9",
                "osm": "https://www.openstreetmap.org/?mlat=35.42274&mlon=138.48179#map=17/35.42274/138.48179",
                "coords": {
                    "lat": 35.42274,
                    "lng": 138.48179
                }
            },
            {
                "name": "Shimobe Golden Foot Bath",
                "description": "This is where Nadeshiko, Aoi, and\n                                                                                    Chiaki relaxed after getting their\n                                                                                    stamp at the Shimobe Bridge. Aoi was\n                                                                                    telling one of her tall tales when a\n                                                                                    tourist overheard her and wanted to\n                                                                                    hear more of her stories.",
                "image": "https://animenavi.org/assets/imgs/series/anime/yuru-camp/loc/sp1/e8/2.jpg",
                "google_maps": "https://goo.gl/maps/x1WqVakGwLawmweeA",
                "osm": "https://www.openstreetmap.org/?mlat=35.42394&mlon=138.47304#map=17/35.42394/138.47304",
                "coords": {
                    "lat": 35.42394,
                    "lng": 138.47304
                }
            },
            {
                "name": "New Umezuki",
                "description": "Nadeshiko, Aoi, and Chiaki each\n                                                                                    bought a hidden wafer sandwich from\n                                                                                    the store and ate them at the bench\n                                                                                    located at the right side of\n                                                                                    building. Series merch and promotion available\n                                                                                    here!",
                "image": "https://animenavi.org/assets/imgs/series/anime/yuru-camp/loc/sp1/e8/3.jpg",
                "google_maps": "https://goo.gl/maps/xx3CKdi4JAS95WBs8",
                "osm": "https://www.openstreetmap.org/?mlat=35.42509&mlon=138.47266#map=17/35.42509/138.47266",
                "coords": {
                    "lat": 35.42509,
                    "lng": 138.47266
                }
            }
        ]
    },
    {
        "episode": "Shizunashi War II",
        "locations": [
            {
                "name": "Road Station Nanbu",
                "description": "This is where Nadeshiko, Aoi, and\n                                                                                    Chiaki where they realized that the\n                                                                                    general depiction of Mt. Fuji on\n                                                                                    merchandise is a view that can only\n                                                                                    be seen in Yamanashi.",
                "image": "https://animenavi.org/assets/imgs/series/anime/yuru-camp/loc/sp1/e9/1.jpg",
                "google_maps": "https://goo.gl/maps/WnYVofzRffofWnvW6",
                "osm": "https://www.openstreetmap.org/?mlat=35.30647&mlon=138.44733#map=17/35.30647/138.44733",
                "coords": {
                    "lat": 35.30647,
                    "lng": 138.44733
                }
            },
            {
                "name": "Nanbu Yorokobi Tea Restaurant",
                "description": "This is where the sixth stamp of the\n                                                                                    Yamanashi Lake Stamp Rally is\n                                                                                    located. This is where Nadeshiko,\n                                                                                    Aoi, and Chiaki met Ena who was\n                                                                                    eating at the restaurant. They\n                                                                                    wanted to eat Tuna Bowls but found\n                                                                                    out that they don't have the money\n                                                                                    for it.",
                "image": "https://animenavi.org/assets/imgs/series/anime/yuru-camp/loc/sp1/e9/2.jpg",
                "google_maps": "https://goo.gl/maps/yeuGAJTXKuyzZYda7",
                "osm": "https://www.openstreetmap.org/?mlat=35.30631&mlon=138.44733#map=17/35.30631/138.44733",
                "coords": {
                    "lat": 35.30631,
                    "lng": 138.44733
                }
            },
            {
                "name": "Toba Sisters Table Capture Point",
                "description": "This is where the Toba sisters sat\n                                                                                    while Minami was drinking wine from\n                                                                                    Yamanashi and Shizuoka. Include the\n                                                                                    striped path and the small underpass\n                                                                                    in the distance when taking a photo.",
                "image": "https://animenavi.org/assets/imgs/series/anime/yuru-camp/loc/sp1/e9/3.jpg",
                "google_maps": "https://goo.gl/maps/JcZDw2FfsHoZLtVPA",
                "osm": "https://www.openstreetmap.org/?mlat=35.30623&mlon=138.44708#map=17/35.30623/138.44708",
                "coords": {
                    "lat": 35.30623,
                    "lng": 138.44708
                }
            }
        ]
    },
    {
        "episode": "Scary Ice Caves",
        "locations": [
            {
                "name": "Narusawa Ice Cave",
                "description": "This is where the seventh stamp of\n                                                                                    the Yamanashi Lake Stamp Rally is\n                                                                                    located. Rin caught up with\n                                                                                    Nadeshiko and gave her the Yamanashi\n                                                                                    Lake Stamp Rally pamphlet that Rin's\n                                                                                    grandfather found after Nadeshiko\n                                                                                    lost it somewhere. Series merch and promotion available\n                                                                                    here!",
                "image": "https://animenavi.org/assets/imgs/series/anime/yuru-camp/loc/sp1/e10/1.jpg",
                "google_maps": "https://goo.gl/maps/z4SPWeQwmFno4Guq6",
                "osm": "https://www.openstreetmap.org/?mlat=35.47492&mlon=138.66696#map=17/35.47492/138.66696",
                "coords": {
                    "lat": 35.47492,
                    "lng": 138.66696
                }
            }
        ]
    },
    {
        "episode": "End of the Journey",
        "locations": [
            {
                "name": "Swings Near Hachiman Shrine Capture\n                                                                                    Point",
                "description": "This is where the eight stamp of the\n                                                                                    Yamanashi Lake Stamp Rally is\n                                                                                    located.",
                "image": "https://animenavi.org/assets/imgs/series/anime/yuru-camp/loc/sp1/e11/1.jpg",
                "google_maps": "https://goo.gl/maps/QgXgMxwf8fims4LG6",
                "osm": "https://www.openstreetmap.org/?mlat=35.56534&mlon=138.50428#map=17/35.56534/138.50428",
                "coords": {
                    "lat": 35.56534,
                    "lng": 138.50428
                }
            },
            {
                "name": "Seishu Park",
                "description": "This is where the ninth stamp of the\n                                                                                    Yamanashi Lake Stamp Rally is\n                                                                                    located.",
                "image": "https://animenavi.org/assets/imgs/series/anime/yuru-camp/loc/sp1/e11/2.jpg",
                "google_maps": "https://goo.gl/maps/zNU1qd3tHGNeYeSg7",
                "osm": "https://www.openstreetmap.org/?mlat=35.56927&mlon=138.50274#map=17/35.56927/138.50274",
                "coords": {
                    "lat": 35.56927,
                    "lng": 138.50274
                }
            },
            {
                "name": "Mitama Hot Spring",
                "description": "This is where the tenth stamp of the\n                                                                                    Yamanashi Lake Stamp Rally is\n                                                                                    located. This is also the last\n                                                                                    destination and where Nadeshiko\n                                                                                    found out that the entire rally was\n                                                                                    just an event that both Aoi and\n                                                                                    Chiaki made up for her.",
                "image": "https://animenavi.org/assets/imgs/series/anime/yuru-camp/loc/sp1/e11/3.jpg",
                "google_maps": "https://goo.gl/maps/ySGRQcnHRQcD96MM7",
                "osm": "https://www.openstreetmap.org/?mlat=35.56581&mlon=138.53412#map=17/35.56581/138.53412",
                "coords": {
                    "lat": 35.56581,
                    "lng": 138.53412
                }
            }
        ]
    },
    {
        "episode": "Sauna, Food, and a Three-Wheeler",
        "locations": [
            {
                "name": "Spatio Kobuchisawa Hotel",
                "description": "This is a hotel with an onsen where\n                                                                                    Rin went through the process of\n                                                                                    using the sauna, a cold bath, and\n                                                                                    the hot onsen water multiple times\n                                                                                    as recommended by Ena.",
                "image": "https://animenavi.org/assets/imgs/series/anime/yuru-camp/loc/sp1/sp1/1.jpg",
                "google_maps": "",
                "osm": "https://www.openstreetmap.org/?mlat=35.87900&mlon=138.31770#map=17/35.87900/138.31770",
                "coords": {
                    "lat": 35.879,
                    "lng": 138.3177
                }
            },
            {
                "name": "Japanese Restaurant Takaoka",
                "description": "Shimarin bought a tempura set meal\n                                                                                    here before heading to the\n                                                                                    supermarket for camping supplies.",
                "image": "https://animenavi.org/assets/imgs/series/anime/yuru-camp/loc/sp1/sp1/2.jpg",
                "google_maps": "https://goo.gl/maps/69zUaS4N6QLwDFNC6",
                "osm": "https://www.openstreetmap.org/?mlat=35.86956&mlon=138.34255#map=17/35.86956/138.34255",
                "coords": {
                    "lat": 35.86956,
                    "lng": 138.34255
                }
            },
            {
                "name": "Himawari Market",
                "description": "This is where Rin bought camping\n                                                                                    supplies for her camp with a\n                                                                                    three-wheeled scooter.",
                "image": "https://animenavi.org/assets/imgs/series/anime/yuru-camp/loc/sp1/sp1/3.jpg",
                "google_maps": "https://goo.gl/maps/oN4nBWsahEtfQ7tG8",
                "osm": "https://www.openstreetmap.org/?mlat=35.86141&mlon=138.38133#map=17/35.86141/138.38133",
                "coords": {
                    "lat": 35.86141,
                    "lng": 138.38133
                }
            }
        ]
    },